     2.10           OBSERVATION DATA    G (GPS)             RINEX VERSION / TYPE
teqc  2006Sep26                         20090414 07:02:02UTCPGM / RUN BY / DATE
MSXP|IAx86-PII|bcc32 5.0|MSWin95->XP|486/DX+                COMMENT
     2.00           OBSERVATION DATA    G (GPS)             COMMENT
teqc  1999Jul19     autorun             20090102 05:11:02UTCCOMMENT
MSWinNT 4.0|PentPro|wcl386 10.6|MSWin95/98/NT|486/DX+       COMMENT
BIT 2 OF LLI FLAGS DATA COLLECTED UNDER A/S CONDITION       COMMENT
BJFS                                                        MARKER NAME
21601M001                                                   MARKER NUMBER
QUFENG              CASM                                    OBSERVER / AGENCY
3332                ASHTECH Z-XII3      CD00-1D02           REC # / TYPE / VERS
1126                ASH700936B_M    SNOW                    ANT # / TYPE
-2148743.1480  4426638.5300  4044654.6100                   APPROX POSITION XYZ
        0.0460        0.0000        0.0000                  ANTENNA: DELTA H/E/N
     1     1                                                WAVELENGTH FACT L1/2
     4    P1    P2    L1    L2                              # / TYPES OF OBSERV
    30.0000                                                 INTERVAL
 SNR is mapped to RINEX snr flag value [1-9]                COMMENT
  L1: 1 -> 1;  90 -> 5; 210 -> 9                            COMMENT
  L2: 1 -> 1; 150 -> 5; 250 -> 9                            COMMENT
  2009     1     1     0     0   30.0000000     GPS         TIME OF FIRST OBS
                                                            END OF HEADER
 09  1  1  0 15  0.0000000  0  9G25G 3G19G28G 7G 6G 8G27G11
  21409884.885    21409886.552   -18218505.41749 -14156765.21847
  22779739.724    22779742.899   -12881052.74249  -9981078.38546
  20867475.457    20867476.161   -22606885.21949 -17584311.66248
  24156162.896    24156164.295    -9137300.88149  -7063629.00045
  20564496.295    20564497.823   -25421945.20949 -19783981.73848
  24176957.641    24176961.215    -1738222.83949  -1320668.20745
  21416809.311    21416811.914   -20697466.58249 -16090461.96047
  22344266.896    22344269.610   -19053924.92949 -14810311.16047
  21100000.184    21100001.737   -23557148.79349 -18282149.24247
 09  1  1  0 15 30.0000000  0  9G25G 3G19G28G 7G 6G 8G27G11
  21422240.412    21422242.448   -18153576.46449 -14106171.24947
  22797090.333    22797092.769   -12789875.10349  -9910030.91146
  20877559.127    20877559.752   -22553894.69449 -17543020.34048
  24140701.670    24140703.107    -9218548.58649  -7126938.88745
  20570389.855    20570391.471   -25390974.64049 -19759848.83848
  24193831.699    24193835.221    -1649551.65649  -1251573.82745
  21405142.648    21405144.647   -20758776.85649 -16138236.19847
  22333515.829    22333518.544   -19110424.47349 -14854336.77947
  21085755.545    21085757.013   -23632004.04049 -18340478.00247
 09  1  1  0 16  0.0000000  0  9G25G 3G19G28G 7G 6G 8G27G11
  21434678.321    21434680.463   -18088214.11149 -14055239.55747
  22814456.201    22814459.471   -12698614.50049  -9838918.77746
  20887696.908    20887697.514   -22500621.04249 -17501508.40548
  24125238.105    24125240.113    -9299809.77549  -7190259.29845
  20576395.268    20576396.933   -25359416.18849 -19735257.84948
  24210706.806    24210709.834    -1560872.54249  -1182473.25045
  21393574.467    21393576.994   -20819565.09549 -16185603.65847
  22322844.177    22322846.956   -19166504.75749 -14898035.69847
  21071594.339    21071595.896   -23706421.30449 -18398465.47247
 09  1  1  0 16 30.0000000  0  9G25G 3G19G28G 7G 6G 8G27G11
  21447198.404    21447200.840   -18022420.48649 -14003971.81247
  22831838.137    22831841.232   -12607271.75649  -9767742.63846
  20897888.113    20897888.719   -22447066.45149 -17459777.55548
  24109772.172    24109774.191    -9381084.18349  -7253590.00645
  20582512.173    20582513.916   -25327270.84749 -19710209.53848
  24227582.664    24227585.241    -1472186.90649  -1113367.61445
  21382106.835    21382109.213   -20879829.14249 -16232562.65547
  22312252.299    22312255.176   -19222163.93549 -14941406.48847
  21057517.014    21057518.527   -23780398.48049 -18456110.02047
 09  1  1  0 17  0.0000000  0  9G25G 3G19G28G 7G 6G 8G27G11
  21459800.449    21459802.802   -17956197.14149 -13952369.22447
  22849236.323    22849238.232   -12515848.17249  -9696503.50746
  20908132.231    20908132.846   -22393232.30949 -17417828.88848
  24094303.871    24094305.927    -9462370.56449  -7316930.02745
  20588741.291    20588742.559   -25294538.53849 -19684703.85448
  24244460.379    24244462.800    -1383495.33749  -1044257.33145
  21370739.425    21370741.963   -20939566.06049 -16279110.90647
  22301741.126    22301744.094   -19277399.67149 -14984447.32547
  21043523.722    21043525.291   -23853933.27049 -18513409.85647
 09  1  1  0 17 30.0000000  0  9G25G 3G19G28G 7G 6G 8G27G11
  21472483.529    21472485.682   -17889546.96349 -13900434.03947
  22866648.209    22866650.434   -12424346.33249  -9625203.38946
  20918429.113    20918429.966   -22339121.57949 -17375664.68848
  24078832.871    24078833.786    -9543669.63149  -7380279.94645
  20595081.002    20595082.573   -25261221.57849 -19658742.60048
  24261337.615    24261342.177    -1294799.64249   -975143.84045
  21359472.385    21359474.964   -20998774.26649 -16325247.17347
  22291311.017    22291314.107   -19332211.08149 -15027157.52247
  21029614.881    21029616.254   -23927024.58549 -18570364.12247
 09  1  1  0 18  0.0000000  0  9G25G 3G19G28G 7G 6G 8G27G11
  21485247.792    21485250.007   -17822470.54749 -13848166.71747
  22884075.804    22884078.094   -12332766.20549  -9553842.28546
  20928778.998    20928779.478   -22284734.58949 -17333285.22048
  24063360.882    24063360.989    -9624978.91049  -7443637.83145
  20601532.446    20601533.957   -25227319.38549 -19632325.31748
  24278217.520    24278220.226    -1206099.47549   -906026.88245
  21348306.615    21348309.295   -21057449.86849 -16370968.41547
  22280962.481    22280965.140   -19386594.83949 -15069534.47547
  21015790.941    21015792.518   -23999668.82649 -18626970.02247
 09  1  1  0 18 30.0000000  0  9G25G 3G19G28G 7G 6G 8G27G11
  21498092.700    21498094.786   -17754971.31949 -13795569.94147
  22901516.170    22901518.997   -12241110.52649  -9482422.30746
  20939180.387    20939180.900   -22230074.72249 -17290693.12148
  24047886.015    24047887.446    -9706299.70249  -7507004.69045
  20608094.663    20608096.235   -25192834.43949 -19605453.94248
  24295097.004    24295099.015    -1117397.31949   -836908.35145
  21337242.624    21337245.057   -21115591.94949 -16416273.94047
  22270695.039    22270697.375   -19440550.45449 -15111577.81647
  21002052.472    21002054.029   -24071865.44749 -18683227.12747
 09  1  1  0 19  0.0000000  0  9G25G 3G19G28G 7G 6G 8G27G11
  21511016.933    21511019.465   -17687051.76549 -13742645.63547
  22918972.096    22918975.355   -12149380.89449  -9410944.69246
  20949633.161    20949633.747   -22175144.18649 -17247890.11448
  24032409.259    24032410.273    -9787631.58449  -7570380.16245
  20614767.503    20614769.230   -25157768.13549 -19578129.55848
  24311976.309    24311979.447    -1028694.52349   -767789.33345
  21326280.323    21326283.246   -21173198.42449 -16461162.11247
  22260509.440    22260512.126   -19494076.62449 -15153286.53047
  20988399.323    20988400.674   -24143613.08849 -18739134.37547
 09  1  1  0 19 30.0000000  0  9G25G 3G19G28G 7G 6G 8G27G11
  21524021.630    21524023.968   -17618712.22049 -13689394.06147
  22936441.932    22936444.924   -12057577.64049  -9339409.71045
  20960137.379    20960138.277   -22119943.15649 -17204876.32847
  24016931.065    24016932.142    -9868972.26149  -7633762.52045
  20621551.147    20621552.674   -25122120.10349 -19550351.88048
  24328856.933    24328860.104     -939990.41949   -698669.26945
  21315420.881    21315423.779   -21230265.57649 -16505630.02447
  22250405.835    22250408.665   -19547169.64549 -15194657.71947
  20974832.486    20974833.843   -24214908.09149 -18794688.92147
 09  1  1  0 20  0.0000000  0  9G25G 3G19G28G 7G 6G 8G27G11
  21537105.742    21537107.941   -17549954.63649 -13635816.74047
  22953925.528    22953927.719   -11965701.74849  -9267818.13645
  20970692.921    20970693.702   -22064473.48549 -17161653.21647
  24001450.202    24001451.911    -9950320.76449  -7697150.97445
  20628445.384    20628446.933   -25085890.93149 -19522121.36748
  24345736.867    24345739.465     -851285.77649   -629548.80645
  21304664.658    21304667.312   -21286791.19749 -16549675.96847
  22240385.242    22240388.206   -19599827.77249 -15235690.03647
  20961352.138    20961353.375   -24285748.33149 -18849889.10347
 09  1  1  0 20 30.0000000  0  9G25G 3G19G28G 7G 6G 8G27G11
  21550268.939    21550271.562   -17480781.27849 -13581915.43847
  22971422.675    22971424.888   -11873754.44149  -9196170.90345
  20981299.189    20981300.105   -22008737.17049 -17118222.33147
  23985968.919    23985971.428   -10031676.94349  -7760545.38745
  20635449.915    20635451.296   -25049082.06049 -19493439.14148
  24362616.621    24362619.877     -762581.89749   -560428.93045
  21294011.652    21294014.312   -21342772.77449 -16593297.98147
  22230447.841    22230450.986   -19652049.06549 -15276381.95447
  20947958.400    20947959.959   -24356131.97749 -18904733.49847
 09  1  1  0 21  0.0000000  0  9G25G 3G19G28G 7G 6G 8G27G11
  21563510.952    21563513.435   -17411193.71649 -13527691.38347
  22988932.083    22988935.675   -11781736.96949  -9124468.99945
  20991955.971    20991956.839   -21952735.68049 -17074584.80947
  23970485.238    23970487.770   -10113039.68149  -7823944.92045
  20642564.650    20642565.920   -25011694.48649 -19464305.97748
  24379496.016    24379498.958     -673879.00249   -491309.83645
  21283462.585    21283465.323   -21398207.39549 -16636493.79447
  22220593.993    22220597.288   -19703831.24149 -15316731.70847
  20934652.052    20934653.833   -24426056.59349 -18959220.21347
 09  1  1  0 21 30.0000000  0  9G25G 3G19G28G 7G 6G 8G27G11
  21576831.450    21576833.907   -17341194.67449 -13473146.68947
  23006455.073    23006458.869   -11689651.39949  -9052714.03945
  21002662.669    21002663.444   -21896471.50949 -17030742.59847
  23955001.917    23955003.783   -10194408.95349  -7887349.55545
  20649789.168    20649790.448   -24973729.61849 -19434722.97148
  24396374.391    24396378.391     -585178.83249   -422192.85545
  21273018.206    21273020.837   -21453093.24149 -16679261.99247
  22210824.086    22210826.860   -19755173.39149 -15356738.58647
  20921433.453    20921435.098   -24495520.83449 -19013348.18747
 09  1  1  0 22  0.0000000  0  9G25G 3G19G28G 7G 6G 8G27G11
  21590229.655    21590232.342   -17270785.71449 -13418282.58447
  23023991.732    23023995.137   -11597498.25649  -8980906.40945
  21013419.193    21013419.840   -21839945.86749 -16986696.64547
  23939516.917    23939517.958   -10275783.53149  -7950758.32745
  20657123.201    20657124.795   -24935187.87049 -19404690.44948
  24413254.176    24413258.089     -496481.85349   -353078.36145
  21262678.844    21262681.486   -21507427.52449 -16721600.40747
  22201138.272    22201141.311   -19806073.05149 -15396400.67047
  20908302.933    20908304.795   -24564522.46049 -19067115.68447
 09  1  1  0 22 30.0000000  0  9G25G 3G19G28G 7G 6G 8G27G11
  21603705.686    21603708.125   -17199969.54849 -13363101.17347
  23041540.683    23041543.468   -11505279.48849  -8909047.66745
  21024225.002    21024225.738   -21783161.15049 -16942448.81747
  23924030.748    23924033.053   -10357163.31849  -8014171.14345
  20664566.838    20664568.417   -24896071.23549 -19374209.96048
  24430131.322    24430134.450     -407789.46649   -283967.46345
  21252444.589    21252447.307   -21561208.75049 -16763507.85947
  22191536.789    22191539.228   -19856529.09349 -15435717.07447
  20895260.492    20895262.338   -24633060.13849 -19120521.66147
 09  1  1  0 23  0.0000000  0  9G25G 3G19G28G 7G 6G 8G27G11
  21617258.164    21617261.317   -17128748.28249 -13307604.10047
  23059101.986    23059104.296   -11412996.75949  -8837139.06745
  21035079.617    21035080.511   -21726119.30849 -16898000.64247
  23908544.489    23908545.715   -10438547.39849  -8077587.30345
  20672119.719    20672121.282   -24856380.95449 -19343282.47948
  24447007.839    24447010.851     -319102.53649   -214860.78345
  21242316.041    21242318.974   -21614434.71149 -16804982.64547
  22182019.727    22182022.596   -19906539.63249 -15474686.33347
  20882307.030    20882308.672   -24701131.63049 -19173564.37747
 09  1  1  0 23 30.0000000  0  9G25G 3G19G28G 7G 6G 8G27G11
  21630888.737    21630890.852   -17057123.23849 -13251792.39747
  23076675.130    23076678.077   -11320650.18049  -8765180.72945
  21045982.949    21045983.946   -21668821.31849 -16853352.86147
  23893056.821    23893058.157   -10519934.61249  -8141005.91045
  20679781.665    20679783.350   -24816117.43849 -19311908.31948
  24463882.646    24463885.299     -230421.30649   -145758.58945
  21232293.499    21232296.627   -21667102.31449 -16846022.34447
  22172588.856    22172591.537   -19956102.15649 -15513306.49247
  20869442.755    20869444.230   -24768734.59149 -19226242.00547
 09  1  1  0 24  0.0000000  0  9G25G 3G19G28G 7G 6G 8G27G11
  21644594.709    21644596.971   -16985097.20649 -13195668.23047
  23094259.517    23094262.712   -11228241.68849  -8693174.13045
  21056934.847    21056935.722   -21611269.63349 -16808507.40247
  23877568.883    23877570.035   -10601324.63349  -8204426.70845
  20687552.346    20687553.797   -24775282.62549 -19280088.99748
  24480755.685    24480761.972     -141747.20149    -76661.92545
  21222377.894    21222381.058   -21719209.92749 -16886625.67947
  22163242.736    22163245.696   -20005215.29349 -15551576.47847
  20856667.819    20856669.336   -24835867.59949 -19278553.43447
 09  1  1  0 24 30.0000000  0  9G25G 3G19G28G 7G 6G 8G27G11
  21658376.888    21658379.425   -16912671.88949 -13139232.93847
  23111856.315    23111857.955   -11135772.44449  -8621120.19845
  21067934.413    21067935.390   -21553465.57749 -16763465.28447
  23862079.836    23862080.539   -10682716.40049  -8267848.85545
  20695431.551    20695433.109   -24733877.37149 -19247825.17448
  24497630.014    24497633.394      -53080.72649     -7571.19645
  21212569.074    21212572.104   -21770754.84649 -16926790.56247
  22153982.537    22153985.326   -20053876.93649 -15589494.64747
  20843982.671    20843984.043   -24902528.69749 -19330497.14047
 09  1  1  0 25  0.0000000  0  9G25G 3G19G28G 7G 6G 8G27G11
  21672234.524    21672236.599   -16839849.61949 -13082488.33447
  23129462.886    23129465.942   -11043244.02849  -8549020.17345
  21078981.795    21078982.717   -21495411.18749 -16718228.10847
  23846592.078    23846593.372   -10764109.49249  -8331272.04345
  20703419.071    20703420.526   -24691902.91249 -19215117.81448
  24514502.123    24514503.263       35577.25949     61512.90145
  21202868.000    21202871.025   -21821735.07249 -16966515.42047
  22144808.978    22144811.542   -20102085.70649 -15627059.93147
  20831387.521    20831389.239   -24968716.13649 -19382071.75547
 09  1  1  0 25 30.0000000  0  9G25G 3G19G28G 7G 6G 8G27G11
  21686167.229    21686169.605   -16766632.20449 -13025435.82447
  23147081.599    23147085.034   -10950656.95949  -8476874.43245
  21090076.634    21090077.466   -21437107.97049 -16672797.03247
  23831103.061    23831104.491   -10845502.58349  -8394695.22545
  20711514.547    20711516.115   -24649360.09249 -19181967.57048
  24531369.976    24531374.326      124226.09849    130589.86644
  21193274.791    21193277.794   -21872148.01549 -17005798.23847
  22135721.639    22135724.759   -20149839.32249 -15664270.54747
  20818883.057    20818884.566   -25034427.34349 -19433275.28847
 09  1  1  0 26  0.0000000  0  9G25G 3G19G28G 7G 6G 8G27G11
  21700174.941    21700177.188   -16693021.85749 -12968077.13247
  23164712.183    23164715.221   -10858012.76749  -8404684.18945
  21101218.540    21101219.505   -21378557.81349 -16627173.54547
  23815614.253    23815615.339   -10926894.83849  -8458117.75545
  20719717.918    20719719.474   -24606250.56449 -19148375.74148
  24548238.758    24548241.211      212864.98749    199659.07844
  21183789.837    21183792.719   -21921991.40249 -17044637.24547
  22126721.539    22126724.322   -20197136.08749 -15701125.17047
  20806469.701    20806471.161   -25099660.59449 -19484106.38347
 09  1  1  0 26 30.0000000  0  9G25G 3G19G28G 7G 6G 8G27G11
  21714256.223    21714258.672   -16619023.39949 -12910416.02147
  23182351.702    23182354.064   -10765315.06549  -8332452.24945
  21112406.435    21112407.180   -21319764.89149 -16581360.88147
  23800125.776    23800127.039   -11008288.48849  -8521541.38845
  20728028.764    20728030.089   -24562578.28349 -19114345.39948
  24565104.152    24565107.923      301490.32949    268717.73644
  21174413.319    21174416.265   -21971266.03249 -17083033.06447
  22117807.990    22117810.878   -20243976.86949 -15737624.48747
  20794146.942    20794148.362   -25164417.26149 -19534566.11147
 09  1  1  0 27  0.0000000  0  9G25G 3G19G28G 7G 6G 8G27G11
  21728411.764    21728414.420   -16544634.75849 -12852450.85647
  23200001.233    23200005.481   -10672561.04849  -8260176.42945
  21123641.277    21123641.763   -21260726.64749 -16535357.05647
  23784637.658    23784639.531   -11089678.26849  -8584961.98445
  20736446.877    20736448.296   -24518340.28249 -19079874.23847
  24581964.750    24581966.977      390105.69948    337768.59744
  21165146.044    21165148.971   -22019965.37149 -17120980.60947
  22108982.370    22108985.278   -20290355.67849 -15773763.82547
  20781915.919    20781917.424   -25228690.94349 -19584649.49247
 09  1  1  0 27 30.0000000  0  9G25G 3G19G28G 7G 6G 8G27G11
  21742641.323    21742643.863   -16469859.63049 -12794184.55447
  23217661.737    23217665.422   -10579753.42649  -8187858.83345
  21134921.838    21134922.419   -21201446.60349 -16489164.81847
  23769150.260    23769152.382   -11171064.92049  -8648380.16345
  20744972.045    20744973.581   -24473539.68349 -19044964.69247
  24598826.757    24598828.609      478708.71449    406809.85844
  21155988.524    21155991.276   -22068088.63549 -17158479.26547
  22100244.649    22100247.456   -20336272.63549 -15809543.28047
  20769776.993    20769778.763   -25292481.22149 -19634356.19647
 09  1  1  0 28  0.0000000  0  9G25G 3G19G28G 7G 6G 8G27G11
  21756943.461    21756945.841   -16394699.93449 -12735618.57647
  23235333.483    23235336.021   -10486893.05649  -8115500.13345
  21146248.057    21146248.632   -21141926.27649 -16442785.34747
  23753663.551    23753665.865   -11252447.31949  -8711795.02045
  20753604.359    20753605.818   -24428177.33649 -19009617.41447
  24615684.236    24615686.850      567299.00949    475841.23544
  21146941.177    21146943.937   -22115633.38349 -17195527.12347
  22091595.187    22091597.947   -20381725.52549 -15844961.11847
  20757730.462    20757732.002   -25355786.08949 -19683684.65447
 09  1  1  0 28 30.0000000  0  9G25G 3G19G28G 7G 6G 8G27G11
  21771318.750    21771320.816   -16319158.61849 -12676755.23647
  23253013.684    23253017.237   -10393981.88349  -8043101.86345
  21157619.635    21157620.309   -21082168.07849 -16396220.52047
  23738178.101    23738180.006   -11333825.43349  -8775206.54345
  20762343.099    20762344.568   -24382255.08849 -18973833.86047
  24632540.517    24632544.050      655874.95249    544861.37044
  21138003.884    21138006.715   -22162598.13849 -17232123.04147
  22083034.283    22083037.340   -20426713.32749 -15880016.55647
  20745776.628    20745777.988   -25418604.49049 -19732634.05747
 09  1  1  0 29  0.0000000  0  9G25G 3G19G28G 7G 6G 8G27G11
  21785765.838    21785768.229   -16243237.84049 -12617596.19847
  23270704.347    23270706.444   -10301020.59849  -7970664.52845
  21169036.331    21169037.016   -21022173.30449 -16349471.35047
  23722693.131    23722695.519   -11415198.53749  -8838614.15645
  20771187.936    20771189.389   -24335774.48849 -18937615.21647
  24649392.990    24649396.048      744435.85549    613869.85544
  21129177.815    21129180.627   -22208980.97049 -17268265.51147
  22074562.418    22074565.427   -20471234.08049 -15914708.05547
  20733915.669    20733916.959   -25480934.87949 -19781203.18147
 09  1  1  0 29 30.0000000  0  9G25G 3G19G28G 7G 6G 8G27G11
  21800284.817    21800287.518   -16166939.43849 -12558142.91747
  23288402.984    23288405.869   -10208010.65749  -7898189.29245
  21180497.517    21180498.211   -20961943.73749 -16302539.22647
  23707210.080    23707211.305   -11496564.94449  -8902016.54546
  20780139.019    20780140.561   -24288736.88249 -18900962.54547
  24666243.635    24666244.848      832981.25649    682866.23544
  21120462.608    21120465.325   -22254779.49049 -17303952.67747
  22066179.652    22066182.753   -20515285.82649 -15949034.09547
  20722147.676    20722149.195   -25542775.01149 -19829390.28947
 09  1  1  0 30  0.0000000  0 10G25G 3G19G28G 7G 6G 8G17G27G11
  21814875.566    21814878.254   -16090266.09949 -12498397.47847
  23306111.365    23306113.965   -10114953.01749  -7825676.88645
  21192003.221    21192003.871   -20901481.61549 -16255425.89447
  23691726.999    23691728.464   -11577924.56749  -8965413.65545
  20789195.479    20789197.096   -24241144.19149 -18863877.34447
  24683089.603    24683091.122      921510.04649    751849.63744
  21111858.894    21111861.460   -22299991.92549 -17339183.15147
  25293851.231    25293855.495    -1475942.61148  -1121157.09944
  22057886.343    22057889.041   -20558867.56349 -15982993.89947
  20710473.428    20710475.191   -25604123.66749 -19877194.43047
 09  1  1  0 30 30.0000000  0 11G25G26G 3G19G28G 7G 6G 8G17G27G11
  21829537.006    21829539.243   -16013219.53749 -12438361.21247
  24923961.241    24923963.091    -3665274.52449  -2833503.06444
  23323827.900    23323831.314   -10021848.78949  -7753128.18245
  21203552.636    21203553.389   -20840788.03749 -16208132.20247
  23676246.885    23676247.584   -11659276.04349  -9028804.41446
  20798357.527    20798359.379   -24192997.07449 -18826360.11947
  24699932.572    24699935.689     1010021.99449    820819.93844
  21103367.333    21103369.845   -22344615.85349 -17373955.04747
  25276898.507    25276902.548    -1565032.88248  -1190578.11444
  22049682.792    22049685.628   -20601977.32649 -16016585.92847
  20698893.075    20698894.514   -25664978.68949 -19924613.92447
 09  1  1  0 31  0.0000000  0 11G25G26G 3G19G28G 7G 6G 8G17G27G11
  21844269.017    21844271.472   -15935802.51249 -12378036.27347
  24922654.835    24922658.420    -3672144.47549  -2838856.29945
  23341553.968    23341556.989    -9928699.44849  -7680544.34045
  21215145.850    21215146.625   -20779865.21149 -16160659.87647
  23660768.031    23660768.543   -11740618.87849  -9092188.43146
  20807624.831    20807626.642   -24144297.55849 -18788412.45647
  24716772.005    24716775.528     1098515.91649    889776.20244
  21094987.774    21094990.696   -22388649.72849 -17408267.16447
  25259962.602    25259964.806    -1654028.95249  -1259925.69644
  22041569.149    22041571.916   -20644613.70049 -16049809.08147
  20687407.006    20687408.595   -25725338.48149 -19971647.52447
 09  1  1  0 31 30.0000000  0 11G25G26G 3G19G28G 7G 6G 8G17G27G11
  21859070.790    21859073.665   -15858017.55649 -12317424.63247
  24921458.843    24921463.037    -3678426.86049  -2843751.68245
  23359288.161    23359291.745    -9835506.18649  -7607926.25145
  21226782.204    21226783.078   -20718715.03949 -16113010.39547
  23645290.796    23645292.516   -11821952.36249  -9155565.15646
  20816996.793    20816998.449   -24095047.67549 -18750035.93347
  24733608.139    24733612.348     1186990.79049    958717.62444
  21086721.177    21086724.055   -22432091.44949 -17442117.85847
  25243047.292    25243048.936    -1742930.69549  -1329199.80244
  22033546.043    22033549.098   -20686775.43949 -16082662.39247
  20676015.492    20676016.985   -25785201.89849 -20018294.34147
 09  1  1  0 32  0.0000000  0 11G25G26G 3G19G28G 7G 6G 8G17G27G11
  21873942.924    21873945.415   -15779866.87949 -12256528.02547
  24920376.113    24920378.662    -3684121.90049  -2848189.38945
  23377030.808    23377034.806    -9742270.03549  -7535274.74245
  21238462.089    21238462.533   -20657338.85649 -16065184.80647
  23629814.999    23629817.349   -11903275.37349  -9218933.73946
  20826473.263    20826474.862   -24045248.72549 -18711231.56847
  24750443.045    24750442.959     1275445.97348   1027643.70144
  21078567.541    21078570.400   -22474939.25749 -17475505.76347
  25226148.801    25226149.353    -1831737.01349  -1398399.48345
  22025613.685    22025616.670   -20728460.70649 -16115144.42347
  20664718.623    20664719.916   -25844567.29149 -20064553.08947
 09  1  1  0 32 30.0000000  0 11G25G26G 3G19G28G 7G 6G 8G17G27G11
  21888883.681    21888885.828   -15701352.04049 -12195347.64347
  24919402.986    24919405.710    -3689229.20849  -2852169.13645
  23394781.100    23394784.233    -9648991.78949  -7462590.43845
  21250184.274    21250184.833   -20595738.16549 -16017184.27447
  23614342.021    23614344.227   -11984586.98649  -9282293.43946
  20836053.730    20836055.680   -23994901.80449 -18672000.21147
  24767271.265    24767271.412     1363881.44048   1096554.40244
  21070527.138    21070530.260   -22517190.54749 -17508428.84847
  25209268.057    25209268.074    -1920446.76749  -1467523.96944
  22017772.553    22017775.333   -20769667.15149 -16147253.34947
  20653516.938    20653518.357   -25903432.19749 -20110421.84847
 09  1  1  0 33  0.0000000  0 11G25G26G 3G19G28G 7G 6G 8G17G27G11
  21903893.180    21903895.711   -15622475.64849 -12133885.53747
  24918543.391    24918543.599    -3693749.00649  -2855691.11245
  23412538.857    23412541.982    -9555672.43049  -7389874.09545
  21261948.759    21261949.420   -20533914.64849 -15969010.11147
  23598871.501    23598873.302   -12065885.89049  -9345643.22446
  20845738.585    20845740.342   -23944008.50949 -18632343.10847
  24784094.988    24784095.928     1452296.28548   1165449.02944
  21062600.865    21062603.913   -22558843.58049 -17540885.76047
  25192403.562    25192407.628    -2009059.89049  -1536573.17945
  22010022.319    22010024.833   -20810393.70049 -16178988.33047
  20642410.856    20642412.379   -25961795.37649 -20155899.64447
 09  1  1  0 33 30.0000000  0 11G25G26G 3G19G28G 7G 6G 8G17G27G11
  21918972.111    21918974.786   -15543234.92949 -12072139.53847
  24917795.649    24917797.586    -3697676.71549  -2858751.68745
  23430305.577    23430309.067    -9462308.01449  -7317122.65645
  21273756.445    21273756.986   -20471865.10149 -15920659.81947
  23583404.189    23583405.925   -12147166.43949  -9408978.71646
  20855528.038    20855529.563   -23892565.56649 -18592257.70947
  24800916.043    24800916.726     1540694.76248   1234330.88844
  21054789.832    21054792.856   -22599891.31149 -17572871.01747
  25175559.873    25175565.558    -2097570.72948  -1605542.66244
  22002365.289    22002367.629   -20850633.74649 -16210344.21647
  20631401.398    20631402.607   -26019650.26649 -20200981.38047
 09  1  1  0 34  0.0000000  0 11G25G26G 3G19G28G 7G 6G 8G17G27G11
  21934118.316    21934121.183   -15463640.58149 -12010117.98947
  24917160.509    24917162.576    -3701020.99649  -2861357.66545
  23448078.983    23448083.206    -9368908.49849  -7244343.86645
  21285605.202    21285605.840   -20409599.45949 -15872141.15147
  23567938.466    23567940.741   -12228435.88149  -9472305.54246
  20865419.960    20865421.517   -23840582.75549 -18551751.63047
  24817732.901    24817739.987     1629067.87548   1303193.03144
  21047092.811    21047095.769   -22640340.17649 -17604389.61847
  25158735.700    25158737.829    -2185987.25349  -1674438.68744
  21994798.918    21994801.700   -20890393.95349 -16241326.20147
  20620487.603    20620488.778   -26077003.28749 -20245672.04247
 09  1  1  0 34 30.0000000  0 11G25G26G 3G19G28G 7G 6G 8G17G27G11
  21949332.303    21949334.637   -15383692.17749 -11947820.54747
  24916634.613    24916637.080    -3703779.49049  -2863507.16645
  23465858.714    23465863.582    -9275472.02549  -7171536.28945
  21297495.361    21297496.101   -20347116.71149 -15823453.29947
  23552477.119    23552478.060   -12309690.69449  -9535620.99046
  20875414.891    20875416.401   -23788059.05649 -18510824.08347
  24834548.080    24834552.388     1717417.58448   1372036.92944
  21039510.340    21039513.483   -22680185.50249 -17635437.93147
  25141931.193    25141931.501    -2274306.11649  -1743258.60645
  21987324.792    21987327.670   -20929670.04849 -16271930.95647
  20609669.743    20609671.391   -26133850.12949 -20289968.27747
 09  1  1  0 35  0.0000000  0 11G25G26G 3G19G28G 7G 6G 8G17G27G11
  21964612.605    21964615.263   -15303392.04449 -11885249.03347
  24916221.709    24916223.479    -3705952.47749  -2865200.42745
  23483646.540    23483650.510    -9181999.64049  -7098700.70445
  21309426.501    21309427.129   -20284418.26949 -15774597.37747
  23537017.812    23537020.512   -12390929.85249  -9598924.22746
  20885512.411    20885513.980   -23734996.27049 -18469476.46747
  24851356.634    24851358.532     1805743.44048   1440862.16044
  21032043.199    21032046.247   -22719425.48749 -17666014.54847
  25125140.627    25125143.029    -2362526.76948  -1812001.95645
  21979943.302    21979946.157   -20968460.67849 -16302157.42847
  20598948.924    20598950.298   -26190189.67249 -20333869.21247
 09  1  1  0 35 30.0000000  0 11G25G26G 3G19G28G 7G 6G 8G17G27G11
  21979960.210    21979962.251   -15222742.32049 -11822405.10847
  24915917.719    24915921.931    -3707540.27849  -2866437.68945
  23501441.021    23501443.236    -9088491.79049  -7025837.50445
  21321398.503    21321398.919   -20221505.78049 -15725574.66847
  23521562.101    23521562.656   -12472152.19249  -9662214.34146
  20895712.070    20895713.858   -23681395.85149 -18427709.91847
  24868156.344    24868160.799     1894044.83548   1509668.37544
  21024691.809    21024694.779   -22758058.03149 -17696117.83747
  25108373.265    25108373.902    -2450648.52549  -1880668.22545
  21972654.628    21972657.185   -21006763.91849 -16332004.11147
  20588324.699    20588326.048   -26246019.82049 -20377373.21647
 09  1  1  0 36  0.0000000  0 11G25G26G 3G19G28G 7G 6G 8G17G27G11
  21995372.600    21995375.406   -15141745.46249 -11759290.68747
  24915727.261    24915731.166    -3708543.35249  -2867219.31245
  23519241.078    23519243.708    -8994950.03749  -6952947.86445
  21333410.707    21333411.242   -20158381.17949 -15676386.67347
  23506108.670    23506110.970   -12553356.67749  -9725490.55746
  20906013.748    20906015.614   -23627259.56249 -18385525.80547
  24884956.233    24884957.653     1982321.13348   1578455.02244
  21017456.108    21017459.077   -22796081.40449 -17725746.44547
  25091622.091    25091625.981    -2538670.99549  -1949257.19745
  21965459.069    21965461.629   -21044578.28649 -16361469.86347
  20577797.817    20577799.150   -26301339.11849 -20420479.15647
 09  1  1  0 36 30.0000000  0 11G25G26G 3G19G28G 7G 6G 8G17G27G11
  22010851.724    22010854.474   -15060402.97149 -11695906.94347
  24915648.056    24915651.875    -3708961.21649  -2867544.96245
  23537048.271    23537052.035    -8901374.37249  -6880031.79945
  21345462.963    21345463.729   -20095044.90749 -15627033.74247
  23490659.615    23490661.259   -12634541.50149  -9788751.45946
  20916417.535    20916419.296   -23572588.35849 -18342924.87847
  24901748.358    24901753.027     2070572.44548   1647222.24644
  21010336.906    21010339.598   -22833493.30249 -17754898.58247
  25074891.904    25074894.241    -2626592.51849  -2017767.49045
  21958356.416    21958359.098   -21081901.61649 -16390552.98947
  20567368.607    20567369.881   -26356145.47249 -20463185.40147
 09  1  1  0 37  0.0000000  0 11G25G26G 3G19G28G 7G 6G 8G17G27G11
  22026396.323    22026398.980   -14978718.16549 -11632256.46047
  24915680.703    24915682.736    -3708795.51249  -2867415.89645
  23554860.409    23554864.274    -8807766.64349  -6807090.76845
  21357555.062    21357555.970   -20031499.69649 -15577517.99947
  23475214.157    23475216.983   -12715707.02749  -9851997.32346
  20926922.353    20926924.047   -23517384.87349 -18299909.18547
  24918536.976    24918541.693     2158797.16748   1715968.71144
  21003334.114    21003337.087   -22870292.78749 -17783573.51247
  25058178.774    25058183.007    -2714413.69449  -2086199.58945
  21951347.538    21951350.041   -21118733.38149 -16419253.07147
  20557036.800    20557038.308   -26410438.30749 -20505491.50047
 09  1  1  0 37 30.0000000  0 11G25G26G 3G19G28G 7G 6G 8G17G27G11
  22042005.227    22042007.531   -14896693.18649 -11568340.91147
  24915822.595    24915823.290    -3708046.29749  -2866832.10845
  23572679.414    23572684.035    -8714127.72249  -6734125.43045
  21369686.884    21369687.688   -19967747.31649 -15527840.82847
  23459774.456    23459774.351   -12796851.59649  -9915226.84846
  20937528.051    20937529.985   -23461650.77549 -18256480.03047
  24935320.017    24935322.436     2246995.00949   1784694.24944
  20996448.451    20996451.339   -22906477.66949 -17811769.53147
  25041485.670    25041489.558    -2802134.07949  -2154553.12645
  21944432.795    21944435.120   -21155072.06449 -16447568.93947
  20546803.204    20546804.696   -26464215.88349 -20547396.10147
 09  1  1  0 38  0.0000000  0 11G25G26G 3G19G28G 7G 6G 8G17G27G11
  22057677.987    22057680.378   -14814330.96749 -11504162.57347
  24916076.039    24916079.698    -3706714.80849  -2865794.59845
  23590504.743    23590507.826    -8620458.97649  -6661136.84345
  21381857.918    21381858.700   -19903789.22249 -15478003.36147
  23444337.153    23444338.463   -12877974.98349  -9978439.86146
  20948234.629    20948236.317   -23405388.08749 -18212638.97947
  24952098.472    24952102.508     2335164.57249   1853397.76444
  20989679.767    20989682.813   -22942046.66749 -17839485.63947
  25024813.162    25024817.249    -2889753.34849  -2222827.85645
  21937611.498    21937614.382   -21190916.54849 -16475499.71247
  20536668.150    20536669.401   -26517477.16749 -20588898.39247
 09  1  1  0 38 30.0000000  0 11G25G26G 3G19G28G 7G 6G 8G17G27G11
  22073414.603    22073417.555   -14731633.11049 -11439722.70147
  24916441.576    24916442.768    -3704800.72949  -2864303.12245
  23608335.020    23608337.783    -8526761.04849  -6588125.50645
  21394067.355    21394068.386   -19839626.70049 -15428006.60147
  23428903.717    23428904.352   -12959075.21149 -10041634.84046
  20959041.577    20959043.023   -23348598.10449 -18168387.05447
  24968872.189    24968875.735     2423306.21049   1922079.50744
  20983029.231    20983031.797   -22976997.33649 -17866719.93647
  25008160.950    25008162.541    -2977270.40249  -2291022.95945
  21930885.084    21930887.545   -21226264.74349 -16503043.77247
  20526631.369    20526632.594   -26570220.09349 -20629996.77047
 09  1  1  0 39  0.0000000  0 11G25G26G 3G19G28G 7G 6G 8G17G27G11
  22089215.195    22089218.129   -14648602.61149 -11375023.62447
  24916916.298    24916916.729    -3702305.35749  -2862358.70245
  23626170.902    23626172.666    -8433035.02049  -6515092.28445
  21406315.526    21406316.524   -19775261.97449 -15377852.28347
  23413474.809    23413476.856   -13040151.99849 -10104811.54146
  20969948.447    20969949.923   -23291283.13549 -18123726.05047
  24985639.192    24985641.925     2511418.77049   1990738.57344
  20976496.064    20976498.783   -23011328.88949 -17893471.80347
  24991525.257    24991528.139    -3064685.19749  -2359138.38345
  21924253.105    21924255.562   -21261115.78649 -16530200.43447
  20516693.609    20516694.799   -26622443.76149 -20670690.53247
 09  1  1  0 39 30.0000000  0 11G25G26G 3G19G28G 7G 6G 8G17G27G11
  22105078.892    22105080.808   -14565241.24449 -11310066.73347
  24917499.514    24917502.999    -3699228.33049  -2859961.07345
  23644011.312    23644014.482    -8339281.53549  -6442037.66545
  21418602.220    21418602.802   -19710695.92849 -15327541.09347
  23398051.476    23398053.886   -13121203.42049 -10167968.48746
  20980954.368    20980956.336   -23233444.47649 -18078656.97847
  25002400.798    25002404.422     2599502.30349   2059375.00044
  20970081.045    20970084.063   -23045038.79349 -17919739.27347
  24974909.830    24974912.614    -3151996.64649  -2427173.30645
  21917716.101    21917718.745   -21295467.89549 -16556968.32347
  20506854.930    20506856.283   -26674146.08649 -20710978.05247
 09  1  1  0 40  0.0000000  0 11G25G26G 3G19G28G 7G 6G 8G17G27G11
  22121004.257    22121006.450   -14481552.22449 -11244854.52547
  24918196.382    24918200.240    -3695571.23949  -2857111.40845
  23661856.548    23661859.245    -8245502.40049  -6368963.06545
  21430926.628    21430927.105   -19645930.88549 -15277074.83847
  23382633.150    23382634.338   -13202229.18349 -10231105.44646
  20992059.939    20992061.593   -23175084.68249 -18033181.82547
  25019156.408    25019161.906     2687555.26948   2127987.62944
  20963784.864    20963787.695   -23078126.09749 -17945521.59247
  24958316.077    24958318.335    -3239205.05449  -2495127.89545
  21911274.430    21911276.841   -21329320.24949 -16583346.78947
  20497115.602    20497116.937   -26725326.58149 -20750858.95247
 09  1  1  0 40 30.0000000  0 11G25G26G 3G19G28G 7G 6G 8G17G27G11
  22136991.799    22136993.960   -14397537.48649 -11179388.51147
  24919003.963    24919005.048    -3691334.15849  -2853809.80645
  23679706.670    23679710.330    -8151698.02349  -6295868.77745
  21443288.570    21443289.497   -19580967.93349 -15226454.36847
  23367218.271    23367220.906   -13283227.95949 -10294221.36546
  21003264.503    21003265.789   -23116205.15349 -17987301.68247
  25035907.522    25035911.938     2775577.65249   2196576.40344
  20957607.250    20957610.389   -23110589.05849 -17970817.41347
  24941740.792    24941743.664    -3326309.59249  -2563001.55445
  21904927.734    21904930.472   -21362671.05249 -16609334.43547
  20487475.926    20487477.344   -26775983.33649 -20790331.74247
 09  1  1  0 41  0.0000000  0 11G25G26G 3G19G28G 7G 6G 8G17G27G11
  22153040.889    22153043.239   -14313199.17349 -11113670.36547
  24919920.908    24919922.177    -3686517.88049  -2850056.92245
  23697561.799    23697565.249    -8057869.03049  -6222755.32645
  21455687.926    21455688.975   -19515808.44449 -15175680.75547
  23351811.277    23351812.534   -13364198.58649 -10357315.35346
  21014567.518    21014569.078   -23056807.61749 -17941017.90347
  25052653.119    25052655.553     2863569.21149   2265141.17844
  20951549.074    20951552.126   -23142425.53249 -17995625.06147
  24925185.623    24925187.800    -3413309.08549  -2630793.37545
  21898677.001    21898679.524   -21395518.64649 -16634929.97647
  20477936.260    20477937.632   -26826114.71549 -20829395.14848
 09  1  1  0 41 30.0000000  0 11G25G26G 3G19G28G 7G 6G 8G17G27G11
  22169150.147    22169152.880   -14228541.90349 -11047703.67247
  24920946.678    24920949.023    -3681124.93649  -2845854.62645
  23715421.365    23715425.495    -7964018.51749  -6149625.10945
  21468124.397    21468125.020   -19450455.93549 -15124756.73047
  23336407.581    23336409.569   -13445141.82349 -10420388.00246
  21025968.145    21025969.893   -22996896.19349 -17894333.68647
  25069391.401    25069391.877     2951527.15149   2333679.75544
  20945609.856    20945612.830   -23173636.17449 -18019945.05147
  24908649.041    24908650.977    -3500205.54349  -2698504.90045
  21892521.992    21892524.644   -21427863.82449 -16660134.02247
  20468496.335    20468497.709   -26875721.69549 -20868049.92948
 09  1  1  0 42  0.0000000  0 11G25G26G 3G19G28G 7G 6G 8G17G27G11
  22185320.382    22185323.052   -14143564.99549 -10981487.91146
  24922083.101    24922086.184    -3675152.90349  -2841201.14145
  23733285.998    23733287.931    -7870144.24749  -6076476.38545
  21480597.532    21480598.232   -19384909.33449 -15073681.46747
  23321010.271    23321012.857   -13526053.72949 -10483436.24346
  21037467.045    21037468.606   -22936469.55549 -17847248.00647
  25086122.369    25086123.270     3039454.18049   2402194.25644
  20939790.884    20939793.824   -23204216.07049 -18043773.55147
  24892133.205    24892135.358    -3586995.23449  -2766133.20345
  21886463.217    21886466.186   -21459702.35449 -16684943.27547
  20459157.230    20459158.486   -26924799.91149 -20906292.69148
 09  1  1  0 42 30.0000000  0 11G25G26G 3G19G28G 7G 6G 8G17G27G11
  22201551.416    22201553.808   -14058271.66149 -10915025.58646
  24923328.349    24923329.342    -3668603.34149  -2836097.61045
  23751152.789    23751155.671    -7776247.90949  -6003310.43845
  21493107.301    21493107.930   -19319170.67449 -15022456.55247
  23305619.855    23305622.192   -13606933.69849 -10546459.59346
  21049063.257    21049064.866   -22875530.47949 -17799763.01947
  25102844.672    25102850.123     3127348.71248   2470683.42444
  20934092.040    20934094.590   -23234164.67049 -18067110.13147
  24875639.313    24875640.783    -3673678.67549  -2833678.74845
  21880500.914    21880503.709   -21491033.81649 -16709357.40947
  20449918.496    20449919.845   -26973348.62249 -20944122.85248
 09  1  1  0 43  0.0000000  0 11G25G26G 3G19G28G 7G 6G 8G17G27G11
  22217841.628    22217844.340   -13972665.04549 -10848319.14646
  24924684.910    24924687.475    -3661477.81649  -2830545.26045
  23769025.846    23769028.265    -7682331.13949  -5930128.59245
  21505652.776    21505653.781   -19253242.03649 -14971083.59947
  23290234.746    23290237.175   -13687781.30749 -10609457.73046
  21060756.572    21060758.022   -22814081.61049 -17751880.80047
  25119566.466    25119569.780     3215209.76249   2539146.48644
  20928513.292    20928516.004   -23263481.32649 -18089954.28947
  24859164.369    24859166.023    -3760255.87749  -2901141.51145
  21874635.775    21874638.140   -21521857.38049 -16733375.78147
  20440781.062    20440782.237   -27021367.18849 -20981539.91348
 09  1  1  0 43 30.0000000  0 11G25G26G 3G19G28G 7G 6G 8G17G27G11
  22234191.110    22234194.042   -13886747.27349 -10781370.24546
  24926150.805    24926153.353    -3653776.69449  -2824544.41745
  23786900.312    23786904.469    -7588394.80749  -5856931.48245
  21518234.586    21518235.298   -19187125.02049 -14919563.85747
  23274857.312    23274858.280   -13768595.21249 -10672429.60546
  21072546.570    21072548.118   -22752124.60349 -17703602.62547
  25136281.874    25136282.666     3303037.14349   2607583.29744
  20923054.881    20923057.828   -23292164.17749 -18112304.56947
  24842709.810    24842710.313    -3846725.79449  -2968520.65945
  21868866.868    21868869.560   -21552171.37649 -16756997.08347
  20431744.508    20431746.012   -27068854.02749 -21018542.64448
 09  1  1  0 44  0.0000000  0 11G25G26G 3G19G28G 7G 6G 8G17G27G11
  22250599.950    22250602.134   -13800521.26349 -10714181.16246
  24927724.595    24927725.096    -3645501.31849  -2818096.06745
  23804778.435    23804783.371    -7494439.81149  -5783719.83545
  21530851.502    21530852.338   -19120821.34449 -14867898.66347
  23259485.423    23259486.368   -13849374.64449 -10735374.61446
  21084433.101    21084434.510   -22689661.72849 -17654930.27147
  25152987.149    25152991.906     3390829.81848   2675993.07544
  20917717.645    20917720.346   -23320212.22649 -18134160.20047
  24826272.879    24826275.920    -3933088.56749  -3035816.32245
  21863195.365    21863197.842   -21581975.07849 -16780220.75547
  20422809.343    20422810.541   -27115808.63849 -21055130.64548
 09  1  1  0 44 30.0000000  0 11G25G26G 3G19G28G 7G 6G 8G17G27G11
  22267066.201    22267068.487   -13713990.07549 -10646754.27946
  24929409.009    24929412.433    -3636652.96649  -2811201.25645
  23822661.025    23822666.003    -7400467.77449  -5710494.90345
  21543504.092    21543504.562   -19054333.12649 -14816089.67347
  23244119.861    23244121.629   -13930119.29849 -10798292.52146
  21096414.906    21096416.713   -22626695.89749 -17605865.99947
  25169685.679    25169690.924     3478586.66048   2744374.95444
  20912501.377    20912504.159   -23347624.42349 -18155520.35947
  24809860.471    24809861.846    -4019344.50849  -3103028.72545
  21857621.024    21857624.253   -21611267.81649 -16803046.26747
  20413975.569    20413977.079   -27162230.02849 -21091303.15348
 09  1  1  0 45  0.0000000  0 11G25G26G 3G19G28G 7G 6G 8G17G27G11
  22283589.562    22283592.391   -13627157.67949 -10579092.68846
  24931202.787    24931203.775    -3627234.23049  -2803862.00645
  23840546.073    23840549.222    -7306481.19549  -5637258.62545
  21556190.920    21556191.406   -18987663.61449 -14764139.41847
  23228761.163    23228762.364   -14010829.20449 -10861183.35246
  21108492.285    21108493.902   -22563230.30949 -17556412.31147
  25186379.442    25186380.864     3566305.69648   2812727.37844
  20907405.744    20907408.689   -23374400.85249 -18176385.11947
  24793466.530    24793468.233    -4105494.58949  -3170158.66145
  21852144.025    21852146.949   -21640049.91049 -16825473.88047
  20405243.214    20405244.617   -27208118.89449 -21127060.70448
 09  1  1  0 45 30.0000000  0 11G25G26G 3G19G28G 7G 6G 8G17G27G11
  22300168.295    22300170.998   -13540033.44349 -10511203.69246
  24933098.405    24933104.072    -3617252.88549  -2796084.34845
  23858432.741    23858436.950    -7212487.54249  -5564016.83545
  21568910.634    21568911.376   -18920820.83449 -14712054.14647
  23213408.282    23213409.292   -14091510.34649 -10924051.76846
  21120662.839    21120664.134   -22499274.10849 -17506576.32347
  25203061.214    25203066.115     3653979.54848   2881044.56944
  20902430.538    20902433.156   -23400546.99349 -18196758.73947
  24777091.626    24777093.345    -4191544.88849  -3237210.81545
  21846762.901    21846765.662   -21668327.14549 -16847508.09447
  20396611.080    20396612.484   -27253480.68549 -21162407.55148
 09  1  1  0 46  0.0000000  0 11G25G26G 3G19G28G 7G 6G 8G17G27G11
  22316806.027    22316807.907   -13452605.49949 -10443078.03946
  24935109.353    24935110.898    -3606695.47549  -2787857.84045
  23876324.115    23876327.425    -7118473.63149  -5490759.28145
  21581665.424    21581666.470   -18853792.15449 -14659824.02047
  23198063.885    23198064.431   -14172147.02849 -10986885.53746
  21132928.818    21132930.405   -22434815.13949 -17456348.57147
  25219739.478    25219744.322     3741622.01548   2949337.32444
  20897577.768    20897580.560   -23426047.48549 -18216629.25747
  24760738.817    24760741.349    -4277481.25749  -3304174.20945
  21841481.157    21841484.043   -21696084.14449 -16869136.93047
  20388082.344    20388083.609   -27298299.77249 -21197331.51448
 09  1  1  0 46 30.0000000  0 11G25G26G 3G19G28G 7G 6G 8G17G27G11
  22333499.880    22333502.500   -13364879.13549 -10374719.85546
  24937227.327    24937229.267    -3595565.54749  -2779185.21345
  23894217.168    23894220.401    -7024442.94849  -5417488.66945
  21594455.290    21594456.203   -18786582.06949 -14607452.54547
  23182726.742    23182728.258   -14252740.78549 -11049685.87146
  21145289.711    21145291.169   -22369858.22049 -17405732.81047
  25236411.926    25236412.427     3829230.03048   3017603.21144
  20892847.732    20892850.599   -23450903.75349 -18235997.78447
  24744406.244    24744408.109    -4363305.38149  -3371050.15845
  21836298.195    21836300.774   -21723322.30749 -16890361.48147
  20379656.497    20379657.932   -27342578.15949 -21231834.15348
 09  1  1  0 47  0.0000000  0 11G25G26G 3G19G28G 7G 6G 8G17G27G11
  22350250.034    22350252.205   -13276858.48849 -10306132.36446
  24939454.305    24939456.322    -3583865.77149  -2770068.55045
  23912114.148    23912115.992    -6930397.63649  -5344206.65645
  21607279.122    21607279.847   -18719193.14949 -14554941.72147
  23167398.774    23167400.623   -14333292.16549 -11112453.17046
  21157745.128    21157746.127   -22304406.95449 -17354731.83747
  25253075.949    25253082.511     3916801.24948   3085840.49044
  20888240.582    20888243.071   -23475115.73149 -18254864.27147
  24728096.815    24728097.507    -4449018.51949  -3437839.63845
  21831213.296    21831216.233   -21750042.07049 -16911182.08447
  20371333.479    20371334.678   -27386316.11749 -21265915.67348
 09  1  1  0 47 30.0000000  0 11G25G26G 3G19G28G 7G 6G 8G17G27G11
  22367055.170    22367057.149   -13188547.24749 -10237318.43546
  24941786.630    24941790.627    -3571598.38049  -2760509.59645
  23930011.907    23930015.027    -6836340.04949  -5270915.06445
  21620136.261    21620137.154   -18651628.61949 -14502294.05047
  23152077.400    23152079.354   -14413801.18149 -11175187.45846
  21170293.001    21170294.666   -22238464.51249 -17303348.12947
  25269732.388    25269735.639     4004334.21748   3154047.94544
  20883755.777    20883758.641   -23498683.33049 -18273228.64247
  24711806.602    24711808.337    -4534621.66849  -3504543.40145
  21826227.357    21826230.145   -21776243.71449 -16931598.95947
  20363113.200    20363114.531   -27429513.76849 -21299576.17748
 09  1  1  0 48  0.0000000  0 11G25G26G 3G19G28G 7G 6G 8G17G27G11
  22383914.688    22383917.065   -13099947.01649 -10168279.30846
  24944230.179    24944233.879    -3558763.47249  -2750508.36445
  23947912.905    23947916.061    -6742269.85949  -5197613.65745
  21633026.767    21633027.362   -18583888.42549 -14449509.49947
  23136766.070    23136766.998   -14494265.49849 -11237886.93646
  21182934.679    21182936.329   -22172032.24349 -17251582.74147
  25286378.994    25286384.757     4091829.42148   3222225.98644
  20879394.066    20879396.814   -23521604.42849 -18291089.23847
  24695538.245    24695539.459    -4620113.14949  -3571160.11445
  21821340.410    21821343.160   -21801925.17649 -16951610.49547
  20354996.079    20354997.613   -27472168.96649 -21332813.99048
 09  1  1  0 48 30.0000000  0 11G25G26G 3G19G28G 7G 6G 8G17G27G11
  22400829.099    22400831.468   -13011060.67649 -10099017.24346
  24946779.884    24946783.717    -3545362.38949  -2740065.98044
  23965817.050    23965819.103    -6648188.68949  -5124303.69045
  21645950.191    21645951.087   -18515974.77649 -14396589.79047
  23121461.995    23121465.132   -14574684.56749 -11300551.14846
  21195669.174    21195670.751   -22105112.81349 -17199437.74147
  25303028.448    25303029.181     4179285.90248   3290373.87944
  20875155.451    20875158.139   -23543878.32149 -18308445.52347
  24679290.333    24679293.080    -4705493.11849  -3637689.94245
  21816552.245    21816555.420   -21827085.80249 -16971216.18547
  20346982.417    20346983.755   -27514281.34649 -21365628.84348
 09  1  1  0 49  0.0000000  0 10G25G26G 3G19G28G 7G 8G17G27G11
  22417797.742    22417799.932   -12921891.42749 -10029534.72746
  24949439.283    24949441.143    -3531396.95949  -2729183.88645
  23983721.255    23983723.908    -6554097.78949  -5050986.14545
  21658906.531    21658907.131   -18447889.87249 -14343536.63347
  23106167.933    23106171.122   -14655057.57049 -11363179.47146
  21208495.794    21208497.336   -22037708.76049 -17146915.12147
  20871039.870    20871042.883   -23565504.66549 -18325297.22747
  24663064.816    24663066.756    -4790761.66449  -3704132.96645
  21811863.821    21811866.569   -21851725.05649 -16990415.61747
  20339072.123    20339073.488   -27555850.39349 -21398020.31748
 09  1  1  0 49 30.0000000  0 10G25G26G 3G19G28G 7G 8G17G27G11
  22434818.848    22434821.464   -12832443.37049  -9959834.96546
  24952201.480    24952205.802    -3516869.78149  -2717864.03545
  24001629.028    24001630.215    -6459999.57549  -4977662.90345
  21671894.620    21671895.317   -18379636.55549 -14290352.24947
  23090882.685    23090883.442   -14735384.94149 -11425772.23246
  21221413.761    21221415.502   -21969823.95949 -17094017.88847
  20867047.803    20867050.809   -23586483.43249 -18341644.32547
  24646858.635    24646861.280    -4875920.12849  -3770490.20945
  21807274.088    21807276.922   -21875843.40849 -17009209.14247
  20331265.288    20331266.403   -27596876.42349 -21429988.65448
 09  1  1  0 50  0.0000000  0 10G25G26G 3G19G28G 7G 8G17G27G11
  22451893.258    22451896.252   -12742717.03549  -9889918.35446
  24955073.162    24955077.921    -3501780.04849  -2706105.83945
  24019535.182    24019539.419    -6365892.59649  -4904332.82145
  21684915.026    21684915.795   -18311214.44849 -14237036.33947
  23075606.370    23075607.578   -14815663.39149 -11488326.85946
  21234423.465    21234424.930   -21901458.74049 -17040746.30347
  20863179.581    20863182.395   -23606811.86549 -18357484.66947
  24630674.519    24630676.747    -4960965.72149  -3836759.49745
  21802784.366    21802786.946   -21899437.88049 -17027594.45447
  20323561.911    20323563.345   -27637356.56449 -21461531.61848
 09  1  1  0 50 30.0000000  0 10G25G26G 3G19G28G 7G 8G17G27G11
  22469020.251    22469022.462   -12652715.35049  -9819787.18646
  24958052.140    24958057.302    -3486129.17749  -2693910.43045
  24037444.064    24037447.922    -6271778.09649  -4830996.89145
  21697967.210    21697967.944   -18242625.27549 -14183590.25447
  23060339.739    23060341.970   -14895891.74449 -11550842.45346
  21247523.975    21247525.062   -21832615.28149 -16987102.06847
  20859435.144    20859437.977   -23626488.98249 -18372817.50247
  24614513.187    24614514.782    -5045898.91249  -3902941.20745
  21798394.236    21798396.903   -21922507.81749 -17045571.04347
  20315962.802    20315964.284   -27677290.31349 -21492648.82548
 09  1  1  0 51  0.0000000  0 10G25G26G 3G19G28G 7G 8G17G27G11
  22486198.599    22486201.841   -12562441.04249  -9749443.58646
  24961138.563    24961140.313    -3469918.64949  -2681278.87045
  24055355.644    24055357.126    -6177657.17049  -4757655.93545
  21711050.902    21711051.664   -18173870.48849 -14130015.11247
  23045082.252    23045083.784   -14976069.37149 -11613318.52946
  21260714.783    21260716.337   -21763296.37249 -16933087.34947
  20855815.030    20855817.720   -23645513.70449 -18387641.97047
  24598372.481    24598373.981    -5130718.94749  -3969034.71145
  21794104.146    21794106.710   -21945052.37249 -17063138.23747
  20308467.930    20308469.330   -27716676.62449 -21523339.46448
 09  1  1  0 51 30.0000000  0 10G25G26G 3G19G28G 7G 8G17G27G11
  22503428.451    22503431.797   -12471896.82149  -9678889.65946
  24964328.475    24964329.907    -3453149.69049  -2668212.19645
  24073266.564    24073270.774    -6083530.66449  -4684310.64345
  21724165.563    21724166.339   -18104951.79549 -14076312.24647
  23029834.238    23029835.895   -15056194.96549 -11675754.04546
  21273995.829    21273997.423   -21693504.33449 -16878703.96347
  20852318.820    20852321.733   -23663885.35549 -18401957.54947
  24582253.480    24582255.200    -5215425.31449  -4035039.64645
  21789914.276    21789916.934   -21967070.92249 -17080295.55547
  20301077.267    20301078.620   -27755515.00149 -21553603.13148
 09  1  1  0 52  0.0000000  0 10G25G26G 3G19G28G 7G 8G17G27G11
  22520709.627    22520712.792   -12381085.15249  -9608127.34446
  24967624.513    24967627.345    -3435823.55649  -2654711.33144
  24091180.453    24091182.170    -5989399.54649  -4610961.76745
  21737310.923    21737311.830   -18035870.64149 -14022482.79847
  23014597.586    23014598.601   -15136267.20949 -11738147.99946
  21287366.213    21287367.927   -21623241.46849 -16823953.69647
  20848947.174    20848950.386   -23681602.92649 -18415763.46047
  24566154.145    24566157.164    -5300017.94949  -4100955.96545
  21785824.478    21785827.115   -21988562.42549 -17097042.19247
  20293790.931    20293792.334   -27793804.53249 -21583439.13748
 09  1  1  0 52 30.0000000  0 10G25G26G 3G19G28G 7G 8G17G27G11
  22538040.809    22538043.811   -12290008.84349  -9537158.81346
  24971029.766    24971032.289    -3417941.40849  -2640777.23844
  24109092.812    24109096.053    -5895264.36149  -4537609.70445
  21750487.131    21750488.012   -17966628.63549 -13968528.01047
  22999370.857    22999372.097   -15216284.84149 -11800499.39846
  21300826.145    21300827.789   -21552510.08349 -16768838.34647
  20845700.392    20845703.329   -23698665.71249 -18429059.14047
  24550079.274    24550081.707    -5384496.68549  -4166783.52945
  21781835.319    21781837.845   -22009526.05349 -17113377.49447
  20286609.403    20286610.526   -27831544.35049 -21612846.79448
 09  1  1  0 53  0.0000000  0 10G25G26G 3G19G28G 7G 8G17G27G11
  22555421.547    22555424.697   -12198670.06349  -9465985.76146
  24974535.239    24974536.609    -3399504.34548  -2626410.73344
  24127007.990    24127010.959    -5801125.72749  -4464254.96045
  21763694.338    21763694.985   -17897226.45049 -13914448.40247
  22984154.351    22984154.997   -15296246.37049 -11862807.07346
  21314374.456    21314375.992   -21481312.13949 -16713359.45047
  20842578.473    20842581.350   -23715071.93649 -18441843.21847
  24534025.208    24534027.921    -5468860.70049  -4232521.70845
  21777946.861    21777949.319   -22029960.67649 -17129300.58747
  20279532.442    20279533.923   -27868733.12149 -21641825.05948
 09  1  1  0 53 30.0000000  0 10G25G26G 3G19G28G 7G 8G17G27G11
  22572852.349    22572855.373   -12107072.33049  -9394610.91746
  24978150.466    24978153.386    -3380514.70249  -2611613.59544
  24144921.519    24144925.180    -5706984.85649  -4390898.47145
  21776931.284    21776931.784   -17827666.67949 -13860246.00047
  22968949.387    22968950.466   -15376151.43849 -11925070.75246
  21328011.115    21328012.752   -21409650.84049 -16657519.49347
  20839581.118    20839584.151   -23730821.68749 -18454115.75847
  24517994.106    24517996.080    -5553110.45949  -4298170.81945
  21774159.043    21774161.282   -22049866.29849 -17144811.46547
  20272560.558    20272562.020   -27905370.95949 -21670374.02348
 09  1  1  0 54  0.0000000  0 10G25G26G 3G19G28G 7G 8G17G27G11
  22590331.869    22590334.706   -12015217.75949  -9323035.94446
  24981870.501    24981872.861    -3360973.08849  -2596386.43045
  24162835.287    24162840.808    -5612842.61049  -4317540.91145
  21790197.670    21790198.723   -17757950.27149 -13805921.54147
  22953754.706    22953756.505   -15455998.21749 -11987289.01446
  21341735.764    21341737.324   -21337528.09649 -16601319.97247
  20836709.526    20836712.282   -23745913.73449 -18465875.80247
  24501983.840    24501986.135    -5637245.04049  -4363730.20545
  21770471.836    21770474.912   -22069241.44049 -17159908.98347
  20265693.812    20265694.949   -27941456.70449 -21698492.79048
 09  1  1  0 54 30.0000000  0 10G25G26G 3G19G28G 7G 8G17G27G11
  22607859.025    22607862.351   -11923109.23849  -9251263.08746
  24985694.264    24985694.191    -3340881.24649  -2580730.44245
  24180751.604    24180753.971    -5518699.66349  -4244182.82445
  21803493.825    21803494.695   -17688078.81749 -13751476.27147
  22938572.167    22938573.637   -15535785.58549 -12049461.00146
  21355547.502    21355549.261   -21264946.23749 -16544762.69847
  20833962.828    20833965.677   -23760347.48749 -18477122.89247
  24485994.379    24485998.870    -5721264.33149  -4429199.76545
  21766885.629    21766888.691   -22088085.58849 -17174592.74247
